{
  "shichifukujin": {
    "name": "å¤§é˜ªä¸ƒç¦ç¥å·¡ã‚Š",
    "icon": "â›©ï¸",
    "category": "temples",
    "description": "æ±Ÿæˆ¸æ™‚ä»£ã‹ã‚‰ç¶šãç¦ã‚’æ‹›ãä¸ƒç¦ç¥å·¡ã‚Š",
    "spots": [
      { "id": 1, "name": "ä¸‰å…‰ç¥ç¤¾", "detail": "å¯¿è€ç¥", "address": "å¤©ç‹å¯ºåŒºç‰é€ æœ¬ç”º14-90", "lat": 34.67361, "lng": 135.52833, "blessing": "é•·å¯¿ãƒ»å¹¸ç¦" },
      { "id": 2, "name": "é•·ä¹…å¯º", "detail": "ç¦ç¦„å¯¿", "address": "ä¸­å¤®åŒºè°·ç”º8-2-49", "lat": 34.67028, "lng": 135.51611, "blessing": "å¹¸ç¦ãƒ»è²¡ç”£ãƒ»é•·å¯¿" },
      { "id": 3, "name": "æ³•æ¡ˆå¯º", "detail": "å¼è²¡å¤©", "address": "ä¸­å¤®åŒºå³¶ä¹‹å†…2-10-14", "lat": 34.66750, "lng": 135.50667, "blessing": "èŠ¸èƒ½ãƒ»è²¡é‹" },
      { "id": 4, "name": "å¤§ä¹—åŠ", "detail": "æ¯˜æ²™é–€å¤©", "address": "æµªé€ŸåŒºæ—¥æœ¬æ©‹3-6-13", "lat": 34.65833, "lng": 135.50583, "blessing": "å‹é‹ãƒ»å„é™¤ã‘" },
      { "id": 5, "name": "å¤§å›½ä¸»ç¥ç¤¾", "detail": "å¤§é»’å¤©", "address": "æµªé€ŸåŒºæ•·æ´¥è¥¿1-2-12", "lat": 34.65444, "lng": 135.49944, "blessing": "é‡‘é‹ãƒ»å•†å£²ç¹ç››" },
      { "id": 6, "name": "ä»Šå®®æˆç¥ç¤¾", "detail": "æµæ¯”å¯¿", "address": "æµªé€ŸåŒºæµç¾é ˆè¥¿1-6-10", "lat": 34.65222, "lng": 135.50556, "blessing": "å•†å£²ç¹ç››" },
      { "id": 7, "name": "å››å¤©ç‹å¯º å¸ƒè¢‹å ‚", "detail": "å¸ƒè¢‹å°Š", "address": "å¤©ç‹å¯ºåŒºå››å¤©ç‹å¯º1-11-18", "lat": 34.65361, "lng": 135.51639, "blessing": "ç¬‘é–€æ¥ç¦" }
    ]
  },
  "naniwashichiko": {
    "name": "ãªã«ã‚ä¸ƒå¹¸ã‚ãã‚Š",
    "icon": "ğŸ™",
    "category": "temples",
    "description": "å¤§é˜ªã‚’ä»£è¡¨ã™ã‚‹7ç¤¾å¯ºã§ä¸ƒã¤ã®å¹¸ã›ã‚’",
    "spots": [
      { "id": 1, "name": "å¤§é˜ªå¤©æº€å®®", "detail": "å­¦æ¥­æˆå°±", "address": "åŒ—åŒºå¤©ç¥æ©‹2-1-8", "lat": 34.69472, "lng": 135.51361, "blessing": "å­¦å•ãƒ»å—é¨“åˆæ ¼" },
      { "id": 2, "name": "ä½å‰å¤§ç¤¾", "detail": "å„é™¤ç¥ˆé¡˜", "address": "ä½å‰åŒºä½å‰2-9-89", "lat": 34.61278, "lng": 135.49278, "blessing": "å„é™¤ã‘ãƒ»é–‹é‹" },
      { "id": 3, "name": "å››æ¢ç•·ç¥ç¤¾", "detail": "å¿ƒé¡˜æˆå°±", "address": "å››æ¡ç•·å¸‚å—é‡2-18-1", "lat": 34.73889, "lng": 135.63889, "blessing": "é¡˜ã„äº‹æˆå°±" },
      { "id": 4, "name": "å¤§å¿µä½›å¯º", "detail": "è«¸èŠ¸ä¸Šé”", "address": "å¹³é‡åŒºå¹³é‡ä¸Šç”º1-7-26", "lat": 34.62639, "lng": 135.55194, "blessing": "èŠ¸èƒ½ãƒ»æŠ€è¡“å‘ä¸Š" },
      { "id": 5, "name": "å¤ªèå¯º", "detail": "ç„¡ç—…æ¯ç½", "address": "åŒ—åŒºå¤ªèå¯ºç”º3-7", "lat": 34.70333, "lng": 135.50389, "blessing": "å¥åº·ãƒ»ç—…æ°—å¹³ç™’" },
      { "id": 6, "name": "ä»Šå®®æˆç¥ç¤¾", "detail": "å•†å£²ç¹ç››", "address": "æµªé€ŸåŒºæµç¾é ˆè¥¿1-6-10", "lat": 34.65222, "lng": 135.50556, "blessing": "å•†å£²ç¹ç››" },
      { "id": 7, "name": "å››å¤©ç‹å¯º", "detail": "å®¶å†…å®‰å…¨", "address": "å¤©ç‹å¯ºåŒºå››å¤©ç‹å¯º1-11-18", "lat": 34.65361, "lng": 135.51639, "blessing": "å®¶æ—ã®å¹¸ç¦" }
    ]
  },
  "shotokutaishi": {
    "name": "è–å¾³å¤ªå­ã‚†ã‹ã‚Šã®å¯º",
    "icon": "ğŸŒ¸",
    "category": "temples",
    "description": "æ²³å†…ä¸‰å¤ªå­ã¨æ—¥æœ¬æœ€å¤ã®å®˜å¯º",
    "spots": [
      { "id": 1, "name": "å››å¤©ç‹å¯º", "detail": "æ—¥æœ¬ä»æ³•æœ€åˆã®å®˜å¯º", "address": "å¤©ç‹å¯ºåŒºå››å¤©ç‹å¯º1-11-18", "lat": 34.65361, "lng": 135.51639, "blessing": "593å¹´å‰µå»º" },
      { "id": 2, "name": "å¡ç¦å¯ºï¼ˆä¸Šã®å¤ªå­ï¼‰", "detail": "è–å¾³å¤ªå­å¾¡å»Ÿ", "address": "å—æ²³å†…éƒ¡å¤ªå­ç”ºå¤ªå­2146", "lat": 34.51722, "lng": 135.64639, "blessing": "å¤ªå­ã®å¢“æ‰€" },
      { "id": 3, "name": "é‡ä¸­å¯ºï¼ˆä¸­ã®å¤ªå­ï¼‰", "detail": "é£›é³¥æ™‚ä»£å‰µå»º", "address": "ç¾½æ›³é‡å¸‚é‡ã€…ä¸Š5-9-24", "lat": 34.55361, "lng": 135.59917, "blessing": "å¼¥å‹’è©è–©åƒ" },
      { "id": 4, "name": "å¤§è–å‹è»å¯ºï¼ˆä¸‹ã®å¤ªå­ï¼‰", "detail": "ç‰©éƒ¨å®ˆå±‹è¨ä¼ã®åœ°", "address": "å…«å°¾å¸‚å¤ªå­å ‚3-3-16", "lat": 34.62278, "lng": 135.59889, "blessing": "æˆ¦å‹ç¥ˆé¡˜" }
    ]
  },
  "joyanokane": {
    "name": "é™¤å¤œã®é˜å·¡ã‚Šï¼ˆå¤§é˜ªå¸‚å†…ï¼‰",
    "icon": "ğŸ””",
    "category": "temples",
    "description": "å¤§æ™¦æ—¥ã«é˜ã‚’ã¤ã‘ã‚‹å¯ºé™¢ï¼ˆ8ãƒ¶æ‰€ï¼‰",
    "spots": [
      { "id": 1, "name": "å››å¤©ç‹å¯º", "detail": "åŒ—é˜å ‚ãƒ»å—é˜å ‚ãƒ»é¼“æ¥¼", "address": "å¤©ç‹å¯ºåŒºå››å¤©ç‹å¯º1-11-18", "lat": 34.65361, "lng": 135.51639, "blessing": "å…ˆç€108åÃ—3ãƒ¶æ‰€" },
      { "id": 2, "name": "ä¸€å¿ƒå¯º", "detail": "æ–‡æ²»å…ƒå¹´é–‹åŸº", "address": "å¤©ç‹å¯ºåŒºé€¢é˜ª2-8-69", "lat": 34.65194, "lng": 135.50889, "blessing": "å½“æ—¥å…ˆç€é †" },
      { "id": 3, "name": "å¤§å¿µä½›å¯º", "detail": "æ—¥æœ¬æœ€åˆã®å¿µä»é“å ´", "address": "å¹³é‡åŒºå¹³é‡ä¸Šç”º1-7-26", "lat": 34.62639, "lng": 135.55194, "blessing": "108çµ„é™å®š" },
      { "id": 4, "name": "æµæµ„å¯º", "detail": "å¹³é‡åŒºã®å¤åˆ¹", "address": "å¹³é‡åŒºå¹³é‡å¸‚ç”º3-9-17", "lat": 34.62500, "lng": 135.55833, "blessing": "åˆ¶é™ãªã—" },
      { "id": 5, "name": "æ³•æ€§å¯º", "detail": "400å¹´ä»¥ä¸Šã®æ­´å²", "address": "ä¸­å¤®åŒºä¸­å¯º1-1-32", "lat": 34.66722, "lng": 135.51500, "blessing": "è‡ªç”±å‚åŠ " },
      { "id": 6, "name": "åŒ—å¾¡å ‚", "detail": "å¾¡å ‚ç­‹ã®ç”±æ¥", "address": "ä¸­å¤®åŒºæœ¬ç”º4-1-3", "lat": 34.68361, "lng": 135.50028, "blessing": "å…ˆç€500å" },
      { "id": 7, "name": "å—å¾¡å ‚", "detail": "å¾¡å ‚ç­‹ã®ç”±æ¥", "address": "ä¸­å¤®åŒºä¹…å¤ªéƒç”º4-1-11", "lat": 34.68028, "lng": 135.50222, "blessing": "22æ™‚é–‹å§‹" },
      { "id": 8, "name": "å¤ªèå¯º", "detail": "å¼˜æ³•å¤§å¸«å‰µå»º", "address": "åŒ—åŒºå¤ªèå¯ºç”º3-7", "lat": 34.70333, "lng": 135.50389, "blessing": "0æ™‚ã¾ã§åˆ¶é™ãªã—" }
    ]
  },
  "settsu88": {
    "name": "æ‘‚æ´¥å›½å…«åå…«ç®‡æ‰€ï¼ˆå¤§é˜ªå¸‚å†…ï¼‰",
    "icon": "ğŸ“¿",
    "category": "temples",
    "description": "æ±Ÿæˆ¸æ™‚ä»£é–‹å‰µã®å¼˜æ³•å¤§å¸«éœŠå ´ï¼ˆå¤§é˜ªå¸‚å†…41ãƒ¶æ‰€ï¼‰",
    "spots": [
      { "id": 1, "name": "æ³•æ¡ˆå¯ºå—åŠ", "detail": "ç¬¬1ç•ªãƒ»æ—¥æœ¬æ©‹è–å¤©", "address": "ä¸­å¤®åŒºå³¶ä¹‹å†…2-10-14", "lat": 34.66750, "lng": 135.50667, "blessing": "è–¬å¸«å¦‚æ¥" },
      { "id": 2, "name": "ä¸‰æ´¥å¯º", "detail": "ç¬¬2ç•ªãƒ»ãƒŸãƒŠãƒŸã®è¦³éŸ³", "address": "ä¸­å¤®åŒºå¿ƒæ–æ©‹ç­‹2-7-12", "lat": 34.66917, "lng": 135.50222, "blessing": "åä¸€é¢è¦³éŸ³" },
      { "id": 3, "name": "å’Œå…‰å¯º", "detail": "ç¬¬3ç•ªãƒ»ã‚ã¿ã æ± ", "address": "è¥¿åŒºåŒ—å €æ±Ÿ3-7-27", "lat": 34.67333, "lng": 135.49083, "blessing": "é˜¿å¼¥é™€å¦‚æ¥" },
      { "id": 4, "name": "äº†å¾³é™¢", "detail": "ç¬¬4ç•ªãƒ»ç¦å³¶è–å¤©", "address": "ç¦å³¶åŒºé·ºæ´²2-14-1", "lat": 34.69361, "lng": 135.48139, "blessing": "æº–èƒè¦³éŸ³" },
      { "id": 5, "name": "æŒæ˜é™¢ï¼ˆæµ¦æ±Ÿï¼‰", "detail": "ç¬¬5ç•ªãƒ»æµ¦æ±Ÿé«˜é‡å±±", "address": "ç¦å³¶åŒºé·ºæ´²2-13-3", "lat": 34.69333, "lng": 135.48111, "blessing": "å¼˜æ³•å¤§å¸«" },
      { "id": 6, "name": "å¤ªèå¯º", "detail": "ç¬¬6ç•ª", "address": "åŒ—åŒºå¤ªèå¯ºç”º3-7", "lat": 34.70333, "lng": 135.50389, "blessing": "åƒæ‰‹è¦³éŸ³" },
      { "id": 7, "name": "å¯Œå…‰å¯º", "detail": "ç¬¬7ç•ª", "address": "æ·€å·åŒºåŠ å³¶4-10-8", "lat": 34.72139, "lng": 135.44833, "blessing": "é˜¿å¼¥é™€å¦‚æ¥" },
      { "id": 9, "name": "æ‘‚æ´¥å›½åˆ†å¯º", "detail": "ç¬¬9ç•ªãƒ»ãªãŒã‚‰å›½åˆ†å¯º", "address": "åŒ—åŒºå›½åˆ†å¯º1-6-18", "lat": 34.71278, "lng": 135.51556, "blessing": "è–¬å¸«å¦‚æ¥" },
      { "id": 10, "name": "å®ç é™¢", "detail": "ç¬¬10ç•ª", "address": "åŒ—åŒºä¸åŠ›ç”º1-2", "lat": 34.69750, "lng": 135.51417, "blessing": "å¤§æ—¥å¦‚æ¥" },
      { "id": 11, "name": "å–„ç¦å¯ºï¼ˆã©ã‚“ã©ã‚å¤§å¸«ï¼‰", "detail": "ç¬¬11ç•ª", "address": "å¤©ç‹å¯ºåŒºç©ºå €ç”º10-19", "lat": 34.67222, "lng": 135.52222, "blessing": "å¼˜æ³•å¤§å¸«" },
      { "id": 12, "name": "èˆˆå¾³å¯º", "detail": "ç¬¬12ç•ª", "address": "å¤©ç‹å¯ºåŒºé¤Œå·®ç”º2-17", "lat": 34.67083, "lng": 135.52528, "blessing": "è–¬å¸«å¦‚æ¥" },
      { "id": 13, "name": "å¤§æ—¥å¯º", "detail": "ç¬¬13ç•ª", "address": "åŸæ±åŒºé´«é‡æ±3-31-17", "lat": 34.68694, "lng": 135.55139, "blessing": "å¤§æ—¥å¦‚æ¥" },
      { "id": 14, "name": "å…­å¤§é™¢", "detail": "ç¬¬14ç•ª", "address": "å¤©ç‹å¯ºåŒºé¤Œå·®ç”º5-34", "lat": 34.67000, "lng": 135.52639, "blessing": "ä¸å‹•æ˜ç‹" },
      { "id": 15, "name": "å††ç åºµï¼ˆéŒå…«å¹¡ï¼‰", "detail": "ç¬¬15ç•ªãƒ»ã‹ã¾ã¯ã¡ã¾ã‚“", "address": "å¤©ç‹å¯ºåŒºç©ºæ¸…ç”º4-2", "lat": 34.67139, "lng": 135.52306, "blessing": "åä¸€é¢è¦³éŸ³" },
      { "id": 16, "name": "è¦³éŸ³å¯º", "detail": "ç¬¬16ç•ª", "address": "å¤©ç‹å¯ºåŒºåŸå—å¯ºç”º8-4", "lat": 34.66833, "lng": 135.52500, "blessing": "åƒæ‰‹è¦³éŸ³" },
      { "id": 17, "name": "æ­£ç¥å¯º", "detail": "ç¬¬17ç•ª", "address": "å¤©ç‹å¯ºåŒºä¸Šæœ¬ç”º7-4-18", "lat": 34.66667, "lng": 135.52139, "blessing": "å¤§æ—¥å¦‚æ¥" },
      { "id": 18, "name": "å®—æµé™¢", "detail": "ç¬¬18ç•ª", "address": "å¤©ç‹å¯ºåŒºç”Ÿç‰å‰ç”º5-22", "lat": 34.66444, "lng": 135.51611, "blessing": "å¤§æ—¥å¦‚æ¥" },
      { "id": 19, "name": "è—¤æ¬¡å¯º", "detail": "ç¬¬19ç•ªãƒ»å¤§é˜ªã®èé€šã•ã‚“", "address": "å¤©ç‹å¯ºåŒºç”Ÿç‰ç”º1-6", "lat": 34.66361, "lng": 135.51556, "blessing": "å®ç”Ÿå¦‚æ¥" },
      { "id": 20, "name": "è‡ªæ€§é™¢", "detail": "ç¬¬20ç•ª", "address": "ä¸­å¤®åŒºä¸­å¯º1-4-18", "lat": 34.66694, "lng": 135.51528, "blessing": "è–è¦³éŸ³" },
      { "id": 21, "name": "å ±æ©é™¢", "detail": "ç¬¬21ç•ªãƒ»åŒ—å‘ãä¸å‹•", "address": "ä¸­å¤®åŒºé«˜æ´¥1-2-28", "lat": 34.66583, "lng": 135.51083, "blessing": "ä¸å‹•æ˜ç‹" },
      { "id": 22, "name": "æŒæ˜é™¢ï¼ˆç”Ÿç‰ï¼‰", "detail": "ç¬¬22ç•ª", "address": "å¤©ç‹å¯ºåŒºç”Ÿç‰ç”º2-15", "lat": 34.66306, "lng": 135.51583, "blessing": "å¤§æ—¥å¦‚æ¥" },
      { "id": 23, "name": "é’è“®å¯º", "detail": "ç¬¬23ç•ª", "address": "å¤©ç‹å¯ºåŒºç”Ÿç‰å¯ºç”º3-19", "lat": 34.66139, "lng": 135.51694, "blessing": "å¤§æ—¥å¦‚æ¥" },
      { "id": 24, "name": "çœŸå…‰é™¢", "detail": "ç¬¬24ç•ª", "address": "å¤©ç‹å¯ºåŒºå¤•é™½ä¸˜ç”º4-8", "lat": 34.65833, "lng": 135.51778, "blessing": "é˜¿å¼¥é™€å¦‚æ¥" },
      { "id": 25, "name": "å››å¤©ç‹å¯º", "detail": "ç¬¬25ç•ª", "address": "å¤©ç‹å¯ºåŒºå››å¤©ç‹å¯º1-11-18", "lat": 34.65361, "lng": 135.51639, "blessing": "æ•‘ä¸–è¦³éŸ³" },
      { "id": 26, "name": "æ¸…æ°´å¯º", "detail": "ç¬¬26ç•ª", "address": "å¤©ç‹å¯ºåŒºä¼¶äººç”º5-8", "lat": 34.65194, "lng": 135.51444, "blessing": "åƒæ‰‹è¦³éŸ³" },
      { "id": 27, "name": "é«˜é‡å¯º", "detail": "ç¬¬27ç•ª", "address": "è¥¿åŒºåœŸä½å €1-5-10", "lat": 34.68611, "lng": 135.49667, "blessing": "å¼˜æ³•å¤§å¸«" },
      { "id": 28, "name": "æµªé€Ÿå¯º", "detail": "ç¬¬28ç•ªãƒ»æ¯˜æ²™é–€å ‚", "address": "æµªé€ŸåŒºæµç¾é ˆè¥¿1-4-8", "lat": 34.65250, "lng": 135.50528, "blessing": "æ¯˜æ²™é–€å¤©" },
      { "id": 29, "name": "å¤§ä¹—åŠ", "detail": "ç¬¬29ç•ªãƒ»æ—¥æœ¬æ©‹ã®æ¯˜æ²™é–€", "address": "æµªé€ŸåŒºæ—¥æœ¬æ©‹3-6-13", "lat": 34.65833, "lng": 135.50583, "blessing": "æ¯˜æ²™é–€å¤©" },
      { "id": 30, "name": "ç«¹æ—å¯º", "detail": "ç¬¬30ç•ª", "address": "å¤©ç‹å¯ºåŒºå‹å±±1-11-19", "lat": 34.65944, "lng": 135.52722, "blessing": "é˜¿å¼¥é™€å¦‚æ¥" },
      { "id": 31, "name": "åœ°è”µé™¢", "detail": "ç¬¬31ç•ª", "address": "å¤§æ­£åŒºä¸‰è»’å®¶æ±4-5-9", "lat": 34.65750, "lng": 135.47361, "blessing": "åœ°è”µè©è–©" },
      { "id": 32, "name": "æ­£åœ“å¯º", "detail": "ç¬¬32ç•ªãƒ»å¤©ä¸‹èŒ¶å±‹ã®è–å¤©", "address": "é˜¿å€é‡åŒºæ¾è™«é€š3-2-32", "lat": 34.63611, "lng": 135.50667, "blessing": "æ­“å–œå¤©" },
      { "id": 33, "name": "é‡‹è¿¦é™¢", "detail": "ç¬¬33ç•ªãƒ»ç¯‰æ¸¯é«˜é‡å±±", "address": "æ¸¯åŒºç¯‰æ¸¯1-13-3", "lat": 34.65972, "lng": 135.44167, "blessing": "å¼˜æ³•å¤§å¸«" },
      { "id": 34, "name": "è¥¿ä¹‹åŠ", "detail": "ç¬¬34ç•ª", "address": "ä½å‰åŒºä¸Šä½å‰2-2-20", "lat": 34.61278, "lng": 135.49611, "blessing": "åœ°è”µè©è–©" },
      { "id": 35, "name": "è˜å³æµ„åœŸå¯º", "detail": "ç¬¬35ç•ª", "address": "ä½å‰åŒºå¸å¡šå±±æ±5-11-14", "lat": 34.60833, "lng": 135.49861, "blessing": "ä¸å‹•æ˜ç‹" },
      { "id": 36, "name": "è–¬å¸«å¯º", "detail": "ç¬¬36ç•ª", "address": "ä½å‰åŒºè‹…ç”°6-1-14", "lat": 34.59778, "lng": 135.51750, "blessing": "è–¬å¸«å¦‚æ¥" },
      { "id": 37, "name": "å¦‚é¡˜å¯º", "detail": "ç¬¬37ç•ªãƒ»å–œé€£å¯º", "address": "å¹³é‡åŒºå–œé€£6-1-38", "lat": 34.60889, "lng": 135.55528, "blessing": "è–è¦³éŸ³" },
      { "id": 38, "name": "é•·å®å¯º", "detail": "ç¬¬38ç•ªãƒ»ãˆã‚“ã¾ã•ã‚“ã®ãŠå¯º", "address": "å¹³é‡åŒºå¹³é‡æœ¬ç”º3-4-23", "lat": 34.62250, "lng": 135.55194, "blessing": "åä¸€é¢è¦³éŸ³" },
      { "id": 39, "name": "å…¨èˆˆå¯º", "detail": "ç¬¬39ç•ª", "address": "å¹³é‡åŒºå¹³é‡æœ¬ç”º4-12-21", "lat": 34.62306, "lng": 135.55000, "blessing": "è–¬å¸«å¦‚æ¥" },
      { "id": 40, "name": "æ³•æ¥½å¯º", "detail": "ç¬¬40ç•ªãƒ»ãŸãªã¹ã®ãŠä¸å‹•", "address": "æ±ä½å‰åŒºå±±å‚1-18-30", "lat": 34.61556, "lng": 135.52139, "blessing": "ä¸å‹•æ˜ç‹" },
      { "id": 41, "name": "äº¬å–„å¯º", "detail": "ç¬¬41ç•ªãƒ»æ¡‘æ´¥å„é™¤ä¸å‹•", "address": "æ±ä½å‰åŒºæ¡‘æ´¥3-21-9", "lat": 34.63000, "lng": 135.53111, "blessing": "ä¸å‹•æ˜ç‹" }
    ]
  },
  "libraries": {
    "name": "å¤§é˜ªå¸‚ç«‹å›³æ›¸é¤¨",
    "icon": "ğŸ“š",
    "category": "public",
    "description": "å¤§é˜ªå¸‚ç«‹å›³æ›¸é¤¨24é¤¨ã‚’å·¡ã‚‹",
    "spots": [
      { "id": 1, "name": "ä¸­å¤®å›³æ›¸é¤¨", "address": "è¥¿åŒºåŒ—å €æ±Ÿ4-3-2", "lat": 34.67222, "lng": 135.48361 },
      { "id": 2, "name": "åŒ—å›³æ›¸é¤¨", "address": "åŒ—åŒºæœ¬åº„æ±3-2-2", "lat": 34.71194, "lng": 135.51583 },
      { "id": 3, "name": "éƒ½å³¶å›³æ›¸é¤¨", "address": "éƒ½å³¶åŒºä¸­é‡ç”º2-16-25", "lat": 34.70750, "lng": 135.53028 },
      { "id": 4, "name": "ç¦å³¶å›³æ›¸é¤¨", "address": "ç¦å³¶åŒºå‰é‡3-17-23", "lat": 34.69444, "lng": 135.47028 },
      { "id": 5, "name": "æ­¤èŠ±å›³æ›¸é¤¨", "address": "æ­¤èŠ±åŒºå››è²«å³¶1-1-18", "lat": 34.68250, "lng": 135.45111 },
      { "id": 6, "name": "å³¶ä¹‹å†…å›³æ›¸é¤¨", "address": "ä¸­å¤®åŒºå³¶ä¹‹å†…1-10-13", "lat": 34.67139, "lng": 135.50583 },
      { "id": 7, "name": "æ¸¯å›³æ›¸é¤¨", "address": "æ¸¯åŒºå¼å¤©2-1-5", "lat": 34.66611, "lng": 135.46083 },
      { "id": 8, "name": "å¤§æ­£å›³æ›¸é¤¨", "address": "å¤§æ­£åŒºåƒå³¶3-6-15", "lat": 34.64750, "lng": 135.47111 },
      { "id": 9, "name": "å¤©ç‹å¯ºå›³æ›¸é¤¨", "address": "å¤©ç‹å¯ºåŒºä¸Šä¹‹å®®ç”º4-47", "lat": 34.66139, "lng": 135.52139 },
      { "id": 10, "name": "æµªé€Ÿå›³æ›¸é¤¨", "address": "æµªé€ŸåŒºæ•·æ´¥è¥¿1-5-23", "lat": 34.65417, "lng": 135.49833 },
      { "id": 11, "name": "è¥¿æ·€å·å›³æ›¸é¤¨", "address": "è¥¿æ·€å·åŒºå¾¡å¹£å³¶1-2-10", "lat": 34.71139, "lng": 135.45194 },
      { "id": 12, "name": "æ·€å·å›³æ›¸é¤¨", "address": "æ·€å·åŒºæ–°é«˜3-9-36", "lat": 34.73361, "lng": 135.48083 },
      { "id": 13, "name": "æ±æ·€å·å›³æ›¸é¤¨", "address": "æ±æ·€å·åŒºæ±ä¸­å³¶1-13-21", "lat": 34.73389, "lng": 135.52139 },
      { "id": 14, "name": "æ±æˆå›³æ›¸é¤¨", "address": "æ±æˆåŒºå¤§ä»Šé‡Œè¥¿3-2-17", "lat": 34.67028, "lng": 135.54500 },
      { "id": 15, "name": "ç”Ÿé‡å›³æ›¸é¤¨", "address": "ç”Ÿé‡åŒºå‹å±±å—3-14-23", "lat": 34.64861, "lng": 135.53972 },
      { "id": 16, "name": "æ—­å›³æ›¸é¤¨", "address": "æ—­åŒºä¸­å®®1-11-14", "lat": 34.72556, "lng": 135.54139 },
      { "id": 17, "name": "åŸæ±å›³æ›¸é¤¨", "address": "åŸæ±åŒºä¸­æµœ2-8-28", "lat": 34.69861, "lng": 135.55806 },
      { "id": 18, "name": "é¶´è¦‹å›³æ›¸é¤¨", "address": "é¶´è¦‹åŒºæ¨ªå ¤5-3-28", "lat": 34.70917, "lng": 135.58222 },
      { "id": 19, "name": "é˜¿å€é‡å›³æ›¸é¤¨", "address": "é˜¿å€é‡åŒºé˜¿å€é‡ç­‹4-19-118", "lat": 34.63222, "lng": 135.51444 },
      { "id": 20, "name": "ä½ä¹‹æ±Ÿå›³æ›¸é¤¨", "address": "ä½ä¹‹æ±ŸåŒºç²‰æµœ1-1-36", "lat": 34.61000, "lng": 135.48694 },
      { "id": 21, "name": "ä½å‰å›³æ›¸é¤¨", "address": "ä½å‰åŒºå—ä½å‰1-8-26", "lat": 34.60528, "lng": 135.50500 },
      { "id": 22, "name": "æ±ä½å‰å›³æ›¸é¤¨", "address": "æ±ä½å‰åŒºæ±ç”°è¾º2-11-28", "lat": 34.61611, "lng": 135.52222 },
      { "id": 23, "name": "å¹³é‡å›³æ›¸é¤¨", "address": "å¹³é‡åŒºå¹³é‡æ±2-2-95", "lat": 34.62139, "lng": 135.56917 },
      { "id": 24, "name": "è¥¿æˆå›³æ›¸é¤¨", "address": "è¥¿æˆåŒºå²¸é‡Œæ±1-3-16", "lat": 34.63806, "lng": 135.49889 }
    ]
  },
  "kuyakusho": {
    "name": "å¤§é˜ª24åŒºå½¹æ‰€",
    "icon": "ğŸ›ï¸",
    "category": "public",
    "description": "å¤§é˜ªå¸‚24åŒºã®åŒºå½¹æ‰€ã‚’å·¡ã‚‹",
    "spots": [
      { "id": 1, "name": "åŒ—åŒºå½¹æ‰€", "address": "åŒ—åŒºæ‰‡ç”º2-1-27", "lat": 34.70333, "lng": 135.51111 },
      { "id": 2, "name": "éƒ½å³¶åŒºå½¹æ‰€", "address": "éƒ½å³¶åŒºä¸­é‡ç”º2-16-20", "lat": 34.70750, "lng": 135.52972 },
      { "id": 3, "name": "ç¦å³¶åŒºå½¹æ‰€", "address": "ç¦å³¶åŒºå¤§é–‹1-8-1", "lat": 34.69111, "lng": 135.47167 },
      { "id": 4, "name": "æ­¤èŠ±åŒºå½¹æ‰€", "address": "æ­¤èŠ±åŒºæ˜¥æ—¥å‡ºåŒ—1-8-4", "lat": 34.68056, "lng": 135.45000 },
      { "id": 5, "name": "ä¸­å¤®åŒºå½¹æ‰€", "address": "ä¸­å¤®åŒºä¹…å¤ªéƒç”º1-2-27", "lat": 34.68028, "lng": 135.51583 },
      { "id": 6, "name": "è¥¿åŒºå½¹æ‰€", "address": "è¥¿åŒºæ–°ç”º4-5-14", "lat": 34.67528, "lng": 135.48639 },
      { "id": 7, "name": "æ¸¯åŒºå½¹æ‰€", "address": "æ¸¯åŒºå¸‚å²¡1-15-25", "lat": 34.66583, "lng": 135.46667 },
      { "id": 8, "name": "å¤§æ­£åŒºå½¹æ‰€", "address": "å¤§æ­£åŒºåƒå³¶3-18-21", "lat": 34.64694, "lng": 135.47278 },
      { "id": 9, "name": "å¤©ç‹å¯ºåŒºå½¹æ‰€", "address": "å¤©ç‹å¯ºåŒºçœŸæ³•é™¢ç”º20-33", "lat": 34.65806, "lng": 135.52028 },
      { "id": 10, "name": "æµªé€ŸåŒºå½¹æ‰€", "address": "æµªé€ŸåŒºæ•·æ´¥æ±1-4-20", "lat": 34.65472, "lng": 135.50194 },
      { "id": 11, "name": "è¥¿æ·€å·åŒºå½¹æ‰€", "address": "è¥¿æ·€å·åŒºå¾¡å¹£å³¶1-2-10", "lat": 34.71139, "lng": 135.45194 },
      { "id": 12, "name": "æ·€å·åŒºå½¹æ‰€", "address": "æ·€å·åŒºåä¸‰æ±2-3-3", "lat": 34.72222, "lng": 135.47611 },
      { "id": 13, "name": "æ±æ·€å·åŒºå½¹æ‰€", "address": "æ±æ·€å·åŒºè±Šæ–°2-1-4", "lat": 34.74611, "lng": 135.52111 },
      { "id": 14, "name": "æ±æˆåŒºå½¹æ‰€", "address": "æ±æˆåŒºå¤§ä»Šé‡Œè¥¿2-8-4", "lat": 34.67111, "lng": 135.54306 },
      { "id": 15, "name": "ç”Ÿé‡åŒºå½¹æ‰€", "address": "ç”Ÿé‡åŒºå‹å±±å—3-1-19", "lat": 34.64917, "lng": 135.53806 },
      { "id": 16, "name": "æ—­åŒºå½¹æ‰€", "address": "æ—­åŒºå¤§å®®1-1-17", "lat": 34.72139, "lng": 135.54028 },
      { "id": 17, "name": "åŸæ±åŒºå½¹æ‰€", "address": "åŸæ±åŒºä¸­å¤®3-5-45", "lat": 34.69556, "lng": 135.55583 },
      { "id": 18, "name": "é¶´è¦‹åŒºå½¹æ‰€", "address": "é¶´è¦‹åŒºæ¨ªå ¤5-4-19", "lat": 34.70944, "lng": 135.58139 },
      { "id": 19, "name": "é˜¿å€é‡åŒºå½¹æ‰€", "address": "é˜¿å€é‡åŒºæ–‡ã®é‡Œ1-1-40", "lat": 34.63722, "lng": 135.51917 },
      { "id": 20, "name": "ä½ä¹‹æ±ŸåŒºå½¹æ‰€", "address": "ä½ä¹‹æ±ŸåŒºå¾¡å´3-1-17", "lat": 34.61222, "lng": 135.47028 },
      { "id": 21, "name": "ä½å‰åŒºå½¹æ‰€", "address": "ä½å‰åŒºå—ä½å‰3-15-55", "lat": 34.60056, "lng": 135.50667 },
      { "id": 22, "name": "æ±ä½å‰åŒºå½¹æ‰€", "address": "æ±ä½å‰åŒºæ±ç”°è¾º1-13-4", "lat": 34.61889, "lng": 135.52167 },
      { "id": 23, "name": "å¹³é‡åŒºå½¹æ‰€", "address": "å¹³é‡åŒºèƒŒæˆ¸å£3-8-19", "lat": 34.62028, "lng": 135.55389 },
      { "id": 24, "name": "è¥¿æˆåŒºå½¹æ‰€", "address": "è¥¿æˆåŒºå²¸é‡Œ1-5-20", "lat": 34.63917, "lng": 135.49944 }
    ]
  },
  "taipei": {
    "name": "å°åŒ—è¦³å…‰ã‚¹ã‚¿ãƒ³ãƒ—ãƒ©ãƒªãƒ¼",
    "icon": "ğŸ‡¹ğŸ‡¼",
    "category": "travel",
    "description": "å°æ¹¾ã®é¦–éƒ½ãƒ»å°åŒ—ã®å®šç•ªè¦³å…‰ã‚¹ãƒãƒƒãƒˆï¼†ã‚°ãƒ«ãƒ¡",
    "spots": [
      { "id": 1, "name": "å°åŒ—101", "detail": "å°åŒ—ã®ãƒ©ãƒ³ãƒ‰ãƒãƒ¼ã‚¯ãƒ»å±•æœ›å°", "address": "ä¿¡ç¾©åŒºå¸‚åºœè·¯45å·", "lat": 25.0339, "lng": 121.5646, "blessing": "çµ¶æ™¯" },
      { "id": 2, "name": "å›½ç«‹æ•…å®®åšç‰©é™¢", "detail": "ä¸–ç•Œå››å¤§åšç‰©é¤¨ã®ä¸€ã¤", "address": "å£«æ—åŒºè‡³å–„è·¯äºŒæ®µ221å·", "lat": 25.1024, "lng": 121.5485, "blessing": "èŠ¸è¡“" },
      { "id": 3, "name": "ä¸­æ­£ç´€å¿µå ‚", "detail": "è”£ä»‹çŸ³ã‚’è¨˜å¿µãƒ»è¡›å…µäº¤ä»£å¼", "address": "ä¸­æ­£åŒºä¸­å±±å—è·¯21å·", "lat": 25.0347, "lng": 121.5219, "blessing": "æ­´å²" },
      { "id": 4, "name": "é¾å±±å¯º", "detail": "å°åŒ—æœ€å¤ã®å¯ºé™¢ãƒ»ãƒ‘ãƒ¯ãƒ¼ã‚¹ãƒãƒƒãƒˆ", "address": "è¬è¯åŒºåºƒå·è¡—211å·", "lat": 25.0372, "lng": 121.4999, "blessing": "ç¸çµã³" },
      { "id": 5, "name": "å£«æ—å¤œå¸‚", "detail": "å°åŒ—æœ€å¤§ã®å¤œå¸‚ãƒ»Bç´šã‚°ãƒ«ãƒ¡", "address": "å£«æ—åŒºåŸºæ²³è·¯101å·", "lat": 25.0877, "lng": 121.5242, "blessing": "ç¾é£Ÿ" },
      { "id": 6, "name": "è¥¿é–€ç”º", "detail": "è‹¥è€…ã®è¡—ãƒ»ãƒ¬ã‚¤ãƒ³ãƒœãƒ¼ãƒ­ãƒ¼ãƒ‰", "address": "è¬è¯åŒºä¸­è¯è·¯ä¸€æ®µ", "lat": 25.0421, "lng": 121.5081, "blessing": "æµè¡Œ" },
      { "id": 7, "name": "è¿ªåŒ–è¡—", "detail": "å•å±‹è¡—ãƒ»ãƒ¬ãƒˆãƒ­ãªè¡—ä¸¦ã¿", "address": "å¤§åŒåŒºè¿ªåŒ–è¡—ä¸€æ®µ", "lat": 25.0570, "lng": 121.5100, "blessing": "è²·ç‰©" },
      { "id": 8, "name": "ä¹ä»½", "detail": "åƒã¨åƒå°‹ã®ä¸–ç•Œãƒ»èŒ¶èŠ¸é¤¨", "address": "æ–°åŒ—å¸‚ç‘èŠ³åŒºåŸºå±±è¡—", "lat": 25.1094, "lng": 121.8445, "blessing": "å¹»æƒ³" },
      { "id": 9, "name": "è±¡å±±", "detail": "å°åŒ—101ã®ãƒ™ã‚¹ãƒˆãƒ“ãƒ¥ãƒ¼", "address": "ä¿¡ç¾©åŒºä¿¡ç¾©è·¯äº”æ®µ150å··", "lat": 25.0271, "lng": 121.5718, "blessing": "å¤œæ™¯" },
      { "id": 10, "name": "æ°¸åº·è¡—", "detail": "ã‚°ãƒ«ãƒ¡ãƒ»é›‘è²¨ã®äººæ°—ã‚¨ãƒªã‚¢", "address": "å¤§å®‰åŒºæ°¸åº·è¡—", "lat": 25.0330, "lng": 121.5298, "blessing": "æ•£ç­–" },
      { "id": 11, "name": "é¥’æ²³è¡—å¤œå¸‚", "detail": "èƒ¡æ¤’é¤…ãŒæœ‰åãªå¤œå¸‚", "address": "æ¾å±±åŒºé¥’æ²³è¡—", "lat": 25.0510, "lng": 121.5775, "blessing": "å±‹å°" },
      { "id": 12, "name": "åŒ—æŠ•æ¸©æ³‰", "detail": "å°åŒ—ã‹ã‚‰30åˆ†ã®æ¸©æ³‰è¡—", "address": "åŒ—æŠ•åŒºå…‰æ˜è·¯", "lat": 25.1367, "lng": 121.5067, "blessing": "ç™’ã—" },
      { "id": 13, "name": "è¯å±±1914æ–‡å‰µåœ’åŒº", "detail": "ãƒªãƒãƒ™ã‚¢ãƒ¼ãƒˆã‚¹ãƒãƒƒãƒˆ", "address": "ä¸­æ­£åŒºå…«å¾³è·¯ä¸€æ®µ1å·", "lat": 25.0440, "lng": 121.5297, "blessing": "æ–‡åŒ–" },
      { "id": 14, "name": "é¼æ³°è±Šï¼ˆæœ¬åº—ï¼‰", "detail": "ä¸–ç•Œä¸€ã®å°ç± åŒ…", "address": "å¤§å®‰åŒºä¿¡ç¾©è·¯äºŒæ®µ194å·", "lat": 25.0330, "lng": 121.5298, "blessing": "çµ¶å“" },
      { "id": 15, "name": "å¯§å¤å¤œå¸‚", "detail": "åœ°å…ƒæ°‘ã«æ„›ã•ã‚Œã‚‹ã‚°ãƒ«ãƒ¡å¤œå¸‚", "address": "å¤§åŒåŒºå¯§å¤è·¯", "lat": 25.0559, "lng": 121.5153, "blessing": "åº¶æ°‘å‘³" }
    ]
  },
  "tainan": {
    "name": "å°å—è¦³å…‰ã‚¹ã‚¿ãƒ³ãƒ—ãƒ©ãƒªãƒ¼",
    "icon": "ğŸ¯",
    "category": "travel",
    "description": "å°æ¹¾ã®å¤éƒ½ãƒ»å°å—ã®æ­´å²ã¨ã‚°ãƒ«ãƒ¡ã‚¹ãƒãƒƒãƒˆ",
    "spots": [
      { "id": 1, "name": "èµ¤å´æ¥¼", "detail": "å°å—ã®ãƒ©ãƒ³ãƒ‰ãƒãƒ¼ã‚¯ãƒ»ã‚ªãƒ©ãƒ³ãƒ€æ™‚ä»£ã®åŸ", "address": "ä¸­è¥¿åŒºæ°‘æ—è·¯äºŒæ®µ212å·", "lat": 22.9979, "lng": 120.2025, "blessing": "æ­´å²" },
      { "id": 2, "name": "å®‰å¹³å¤å ¡", "detail": "å°æ¹¾æœ€å¤ã®åŸãƒ»å±•æœ›å°", "address": "å®‰å¹³åŒºå›½å‹è·¯82å·", "lat": 22.9978, "lng": 120.1599, "blessing": "éºç”£" },
      { "id": 3, "name": "ç¥è¾²è¡—", "detail": "ãƒ¬ãƒˆãƒ­ãªè¡—ä¸¦ã¿ãƒ»ã‚«ãƒ•ã‚§å·¡ã‚Š", "address": "ä¸­è¥¿åŒºç¥è¾²è¡—", "lat": 22.9981, "lng": 120.1962, "blessing": "æ•£ç­–" },
      { "id": 4, "name": "æ—ç™¾è²¨", "detail": "æ—¥æœ¬çµ±æ²»æ™‚ä»£ã®ãƒ¬ãƒˆãƒ­ãƒ‡ãƒ‘ãƒ¼ãƒˆ", "address": "ä¸­è¥¿åŒºå¿ ç¾©è·¯äºŒæ®µ63å·", "lat": 22.9916, "lng": 120.2034, "blessing": "è²·ç‰©" },
      { "id": 5, "name": "èŠ±åœ’å¤œå¸‚", "detail": "400åº—ä»¥ä¸Šã®å¤§è¦æ¨¡å¤œå¸‚ï¼ˆæœ¨åœŸæ—¥ï¼‰", "address": "åŒ—åŒºæµ·å®‰è·¯ä¸‰æ®µ", "lat": 23.0067, "lng": 120.2033, "blessing": "ç¾é£Ÿ" },
      { "id": 6, "name": "å®‰å¹³æ¨¹å±‹", "detail": "ã‚¬ã‚¸ãƒ¥ãƒãƒ«ã«è¦†ã‚ã‚ŒãŸå»ƒå¢Ÿ", "address": "å®‰å¹³åŒºå¤å ¡è¡—108å·", "lat": 22.9995, "lng": 120.1623, "blessing": "ç¥ç§˜" },
      { "id": 7, "name": "å››è‰ç·‘è‰²éš§é“", "detail": "ãƒãƒ³ã‚°ãƒ­ãƒ¼ãƒ–ã®ãƒˆãƒ³ãƒãƒ«", "address": "å®‰å—åŒºå¤§è¡†è·¯360å·", "lat": 23.0270, "lng": 120.1340, "blessing": "è‡ªç„¶" },
      { "id": 8, "name": "å¤§å¤©åå®®", "detail": "å°æ¹¾æœ€å¤ã®åª½ç¥–å»Ÿ", "address": "ä¸­è¥¿åŒºæ°¸ç¦è·¯äºŒæ®µ227å··18å·", "lat": 22.9964, "lng": 120.2023, "blessing": "å‚æ‹" },
      { "id": 9, "name": "å°å—å­”å­å»Ÿ", "detail": "å°æ¹¾æœ€å¤ã®å­”å­å»Ÿãƒ»å­¦å•ã®è–åœ°", "address": "ä¸­è¥¿åŒºå—é–€è·¯2å·", "lat": 22.9900, "lng": 120.2040, "blessing": "å­¦æ¥­" },
      { "id": 10, "name": "å›½è¯è¡—", "detail": "Bç´šã‚°ãƒ«ãƒ¡ã‚¹ãƒˆãƒªãƒ¼ãƒˆ", "address": "ä¸­è¥¿åŒºå›½è¯è¡—ä¸‰æ®µ", "lat": 22.9939, "lng": 120.1985, "blessing": "é£Ÿé“æ¥½" },
      { "id": 11, "name": "å°å—å¸‚ç¾è¡“é¤¨2é¤¨", "detail": "ãƒ¢ãƒ€ãƒ³å»ºç¯‰ã®ç¾ä»£ç¾è¡“é¤¨", "address": "ä¸­è¥¿åŒºå¿ ç¾©è·¯äºŒæ®µ1å·", "lat": 22.9902, "lng": 120.2056, "blessing": "èŠ¸è¡“" },
      { "id": 12, "name": "å®‰å¹³è€è¡—", "detail": "å°æ¹¾æœ€å¤ã®å•†åº—è¡—", "address": "å®‰å¹³åŒºå»¶å¹³è¡—", "lat": 22.9978, "lng": 120.1610, "blessing": "åœŸç”£" },
      { "id": 13, "name": "åº¦å°æœˆæ“”ä»”éºµï¼ˆæœ¬åº—ï¼‰", "detail": "æ‹…ä»”éººç™ºç¥¥ã®åº—", "address": "ä¸­è¥¿åŒºä¸­æ­£è·¯16å·", "lat": 22.9920, "lng": 120.2010, "blessing": "åç‰©" },
      { "id": 14, "name": "åŒè¨˜å®‰å¹³è±†èŠ±", "detail": "çµ¶å“è±†èŠ±ã‚¹ã‚¤ãƒ¼ãƒ„", "address": "å®‰å¹³åŒºå®‰åŒ—è·¯433å·", "lat": 23.0010, "lng": 120.1620, "blessing": "ç”˜å‘³" },
      { "id": 15, "name": "å¥‡ç¾åšç‰©é¤¨", "detail": "è¥¿æ´‹ç¾è¡“ã®æ®¿å ‚", "address": "ä»å¾³åŒºæ–‡è¯è·¯äºŒæ®µ66å·", "lat": 22.9350, "lng": 120.2268, "blessing": "æ–‡åŒ–" }
    ]
  },
  "kaohsiung": {
    "name": "é«˜é›„è¦³å…‰ã‚¹ã‚¿ãƒ³ãƒ—ãƒ©ãƒªãƒ¼",
    "icon": "ğŸŒ´",
    "category": "travel",
    "description": "å°æ¹¾ç¬¬äºŒã®éƒ½å¸‚ãƒ»æ¸¯ç”ºé«˜é›„ã®è¦³å…‰ï¼†ã‚°ãƒ«ãƒ¡",
    "spots": [
      { "id": 1, "name": "é¾è™å¡”", "detail": "é«˜é›„ã®ã‚·ãƒ³ãƒœãƒ«ãƒ»è“®æ± æ½­", "address": "å·¦å–¶åŒºè“®æ½­è·¯9å·", "lat": 22.6814, "lng": 120.2944, "blessing": "é–‹é‹" },
      { "id": 2, "name": "ç¾éº—å³¶é§…", "detail": "ä¸–ç•Œã§2ç•ªç›®ã«ç¾ã—ã„é§…ãƒ»å…‰ã®ãƒ‰ãƒ¼ãƒ ", "address": "æ–°èˆˆåŒºä¸­å±±ä¸€è·¯115å·", "lat": 22.6316, "lng": 120.3016, "blessing": "èŠ¸è¡“" },
      { "id": 3, "name": "å…­åˆå¤œå¸‚", "detail": "é«˜é›„ã‚’ä»£è¡¨ã™ã‚‹å¤œå¸‚", "address": "æ–°èˆˆåŒºå…­åˆäºŒè·¯", "lat": 22.6320, "lng": 120.2990, "blessing": "ç¾é£Ÿ" },
      { "id": 4, "name": "é§äºŒèŠ¸è¡“ç‰¹åŒº", "detail": "å€‰åº«ãƒªãƒãƒ™ã®ã‚¢ãƒ¼ãƒˆã‚¨ãƒªã‚¢", "address": "å¡©åŸ•åŒºå¤§å‹‡è·¯1å·", "lat": 22.6213, "lng": 120.2824, "blessing": "æ–‡åŒ–" },
      { "id": 5, "name": "æ——æ´¥åŠå³¶", "detail": "ãƒ•ã‚§ãƒªãƒ¼ã§5åˆ†ãƒ»æµ·é®®ã‚°ãƒ«ãƒ¡", "address": "æ——æ´¥åŒºå»Ÿå‰è·¯", "lat": 22.6135, "lng": 120.2640, "blessing": "æµ·é®®" },
      { "id": 6, "name": "æ„›æ²³", "detail": "é«˜é›„ã®ãƒ­ãƒãƒ³ãƒãƒƒã‚¯ã‚¹ãƒãƒƒãƒˆ", "address": "å‰é‡‘åŒºæ²³æ±è·¯", "lat": 22.6280, "lng": 120.2900, "blessing": "å¤œæ™¯" },
      { "id": 7, "name": "ä¸‰é³³å®®", "detail": "èµ¤æç¯ãŒç¾ã—ã„é“æ•™å¯ºé™¢", "address": "ä¸‰æ°‘åŒºæ²³åŒ—äºŒè·¯134å·", "lat": 22.6412, "lng": 120.3010, "blessing": "å‚æ‹" },
      { "id": 8, "name": "è¥¿å­æ¹¾", "detail": "å¤•æ—¥ã®åæ‰€ãƒ»æ—§è‹±å›½é ˜äº‹é¤¨", "address": "é¼“å±±åŒºè“®æµ·è·¯70å·", "lat": 22.6235, "lng": 120.2630, "blessing": "å¤•é™½" },
      { "id": 9, "name": "é«˜é›„85ãƒ“ãƒ«", "detail": "é«˜é›„ã®ãƒ©ãƒ³ãƒ‰ãƒãƒ¼ã‚¯ãƒ»å±•æœ›å°", "address": "è‹“é›…åŒºè‡ªå¼·ä¸‰è·¯1å·", "lat": 22.6110, "lng": 120.3002, "blessing": "çµ¶æ™¯" },
      { "id": 10, "name": "ç‘è±Šå¤œå¸‚", "detail": "åœ°å…ƒæ°‘ã«äººæ°—ã®å¤œå¸‚ï¼ˆç«æœ¨é‡‘åœŸæ—¥ï¼‰", "address": "å·¦å–¶åŒºè£•èª è·¯", "lat": 22.6670, "lng": 120.3100, "blessing": "å±‹å°" },
      { "id": 11, "name": "è“®æ± æ½­", "detail": "é¾è™å¡”ãƒ»æ˜¥ç§‹é–£ãŒã‚ã‚‹æ¹–", "address": "å·¦å–¶åŒºè“®æ½­è·¯", "lat": 22.6836, "lng": 120.2950, "blessing": "é¢¨æ™¯" },
      { "id": 12, "name": "æ£§è²³åº«KW2", "detail": "æ¸¯ã®è¤‡åˆæ–½è¨­ãƒ»ãŠã—ã‚ƒã‚Œã‚¹ãƒãƒƒãƒˆ", "address": "é¼“å±±åŒºè“¬èŠè·¯17å·", "lat": 22.6188, "lng": 120.2775, "blessing": "è²·ç‰©" },
      { "id": 13, "name": "é´¨è‚‰ç", "detail": "é«˜é›„åç‰©ãƒ»é´¨è‚‰é£¯ã®ååº—", "address": "å¡©åŸ•åŒºäº”ç¦å››è·¯258å·", "lat": 22.6220, "lng": 120.2850, "blessing": "Bç´š" },
      { "id": 14, "name": "æ¸¯åœ’ç‰›è‚‰éºº", "detail": "60å¹´ä»¥ä¸Šã®è€èˆ—ç‰›è‚‰éºº", "address": "å¡©åŸ•åŒºå¤§æˆè¡—55å·", "lat": 22.6200, "lng": 120.2800, "blessing": "éººé¡" },
      { "id": 15, "name": "ç¦æ³‰æ°·åº—", "detail": "ã‚³ã‚¹ãƒ‘æœ€é«˜ã®ãƒãƒ³ã‚´ãƒ¼ã‹ãæ°·", "address": "é¼“å±±åŒºæ²³è¥¿ä¸€è·¯101å·", "lat": 22.6350, "lng": 120.2800, "blessing": "ç”˜å‘³" }
    ]
  },
  "osaka50": {
    "name": "å¤§é˜ªã‚ãæ­©ã‚¹ã‚¿ãƒ³ãƒ—ãƒ©ãƒªãƒ¼",
    "icon": "ğŸ¯",
    "category": "sightseeing",
    "description": "å¤§é˜ªã®æ­´å²ãƒ»æ–‡åŒ–ã‚¹ãƒãƒƒãƒˆ50ç®‡æ‰€ã‚’å·¡ã‚‹",
    "spots": [
      { "id": 1, "name": "å¤§é˜ªåŸ", "detail": "è±Šè‡£ç§€å‰ãŒç¯‰ã„ãŸå¤©ä¸‹ã®ååŸ", "address": "ä¸­å¤®åŒºå¤§é˜ªåŸ1", "lat": 34.6867, "lng": 135.5274 },
      { "id": 2, "name": "èˆå¯†å±€è·¡", "detail": "æ—¥æœ¬åˆã®ç†åŒ–å­¦ç ”ç©¶æ‰€è·¡", "address": "ä¸­å¤®åŒºå¤§æ‰‹å‰", "lat": 34.6830, "lng": 135.5210 },
      { "id": 3, "name": "å¤§é˜ªæ­´å²åšç‰©é¤¨", "detail": "å¤§é˜ªã®æ­´å²ã‚’å­¦ã¹ã‚‹åšç‰©é¤¨", "address": "ä¸­å¤®åŒºå¤§æ‰‹å‰4", "lat": 34.6826, "lng": 135.5208 },
      { "id": 4, "name": "é›£æ³¢å®®è·¡", "detail": "å¤ä»£ã®å®®æ®¿è·¡", "address": "ä¸­å¤®åŒºæ³•å††å‚1", "lat": 34.6790, "lng": 135.5230 },
      { "id": 5, "name": "è¶Šä¸­äº•", "detail": "ç´°å·ã‚¬ãƒ©ã‚·ãƒ£ã‚†ã‹ã‚Šã®äº•æˆ¸", "address": "ä¸­å¤®åŒºæ£®ãƒå®®ä¸­å¤®", "lat": 34.6780, "lng": 135.5320 },
      { "id": 6, "name": "ç‰é€ ç¨²è·ç¥ç¤¾", "detail": "è±Šè‡£ç§€é ¼ã‚†ã‹ã‚Šã®ç¥ç¤¾", "address": "ä¸­å¤®åŒºç‰é€ 2", "lat": 34.6745, "lng": 135.5310 },
      { "id": 7, "name": "ä¸‰å…‰ç¥ç¤¾", "detail": "çœŸç”°å¹¸æ‘ã®æŠœã‘ç©´ä¼èª¬", "address": "å¤©ç‹å¯ºåŒºç‰é€ æœ¬ç”º", "lat": 34.6720, "lng": 135.5290 },
      { "id": 8, "name": "å††ç åºµ", "detail": "å¥‘æ²–ã‚†ã‹ã‚Šã®å¯º", "address": "å¤©ç‹å¯ºåŒºç©ºæ¸…ç”º", "lat": 34.6700, "lng": 135.5260 },
      { "id": 9, "name": "äº•åŸè¥¿é¶´å¢“", "detail": "æµ®ä¸–è‰å­ä½œå®¶ã®å¢“", "address": "ä¸­å¤®åŒºä¸Šæœ¬ç”ºè¥¿", "lat": 34.6680, "lng": 135.5200 },
      { "id": 10, "name": "è¿‘æ¾é–€å·¦è¡›é–€å¢“", "detail": "æµ„ç‘ ç’ƒä½œå®¶ã®å¢“", "address": "ä¸­å¤®åŒºè°·ç”º8", "lat": 34.6685, "lng": 135.5185 },
      { "id": 11, "name": "é«˜æ´¥å®®", "detail": "ä»å¾³å¤©çš‡ã‚’ç¥€ã‚‹ç¥ç¤¾", "address": "ä¸­å¤®åŒºé«˜æ´¥1", "lat": 34.6665, "lng": 135.5155 },
      { "id": 12, "name": "ç”Ÿåœ‹é­‚ç¥ç¤¾", "detail": "å¤§é˜ªæœ€å¤ã®ç¥ç¤¾", "address": "å¤©ç‹å¯ºåŒºç”Ÿç‰ç”º", "lat": 34.6635, "lng": 135.5150 },
      { "id": 13, "name": "å£ç¸„å‚", "detail": "é¢¨æƒ…ã‚ã‚‹çŸ³ç•³ã®å‚é“", "address": "å¤©ç‹å¯ºåŒºä¸‹å¯ºç”º", "lat": 34.6605, "lng": 135.5135 },
      { "id": 14, "name": "å‹é¬˜é™¢", "detail": "æ„›æŸ“å ‚ã¨ã‚‚å‘¼ã°ã‚Œã‚‹å¯º", "address": "å¤©ç‹å¯ºåŒºå¤•é™½ä¸˜ç”º", "lat": 34.6580, "lng": 135.5145 },
      { "id": 15, "name": "ä¸€å¿ƒå¯º", "detail": "ãŠéª¨ä»ã§æœ‰åãªå¯º", "address": "å¤©ç‹å¯ºåŒºé€¢é˜ª2", "lat": 34.6535, "lng": 135.5130 },
      { "id": 16, "name": "å››å¤©ç‹å¯º", "detail": "è–å¾³å¤ªå­å‰µå»ºã®å¯º", "address": "å¤©ç‹å¯ºåŒºå››å¤©ç‹å¯º1", "lat": 34.6533, "lng": 135.5165 },
      { "id": 17, "name": "åºšç”³å ‚", "detail": "æ—¥æœ¬æœ€åˆã®åºšç”³å°Š", "address": "å¤©ç‹å¯ºåŒºå €è¶Šç”º", "lat": 34.6510, "lng": 135.5150 },
      { "id": 18, "name": "å¤©ç‹å¯ºå…¬åœ’", "detail": "ã¦ã‚“ã—ã°ã‚„ç¾è¡“é¤¨ã®ã‚ã‚‹å…¬åœ’", "address": "å¤©ç‹å¯ºåŒºèŒ¶è‡¼å±±ç”º", "lat": 34.6505, "lng": 135.5090 },
      { "id": 19, "name": "ä»Šå®®æˆç¥ç¤¾", "detail": "åæ—¥æˆã§æœ‰åãªå•†å£²ã®ç¥", "address": "æµªé€ŸåŒºæµç¾é ˆè¥¿1", "lat": 34.6490, "lng": 135.5053 },
      { "id": 20, "name": "éœ²å¤©ç¥ç¤¾ï¼ˆãŠåˆå¤©ç¥ï¼‰", "detail": "æ›½æ ¹å´å¿ƒä¸­ã‚†ã‹ã‚Šã®ç¥ç¤¾", "address": "åŒ—åŒºæ›½æ ¹å´2", "lat": 34.7020, "lng": 135.5010 },
      { "id": 21, "name": "å¤ªèå¯º", "detail": "åµ¯å³¨å¤©çš‡ã®çš‡å­ã‚†ã‹ã‚Šã®å¯º", "address": "åŒ—åŒºå¤ªèå¯ºç”º", "lat": 34.7040, "lng": 135.5050 },
      { "id": 22, "name": "æ·€å±‹ã®å±‹æ•·è·¡", "detail": "è±ªå•†æ·€å±‹ã®å±‹æ•·è·¡", "address": "ä¸­å¤®åŒºåŒ—æµœ4", "lat": 34.6905, "lng": 135.5030 },
      { "id": 23, "name": "æ—¥æœ¬éŠ€è¡Œå¤§é˜ªæ”¯åº—", "detail": "æ˜æ²»å»ºç¯‰ã®é‡è¦æ–‡åŒ–è²¡", "address": "åŒ—åŒºä¸­ä¹‹å³¶2", "lat": 34.6920, "lng": 135.5010 },
      { "id": 24, "name": "å¤§é˜ªåºœç«‹ä¸­ä¹‹å³¶å›³æ›¸é¤¨", "detail": "é‡è¦æ–‡åŒ–è²¡ã®å›³æ›¸é¤¨", "address": "åŒ—åŒºä¸­ä¹‹å³¶1", "lat": 34.6915, "lng": 135.5025 },
      { "id": 25, "name": "å¤§é˜ªå¸‚ä¸­å¤®å…¬ä¼šå ‚", "detail": "é‡è¦æ–‡åŒ–è²¡ã®æ´‹é¢¨å»ºç¯‰", "address": "åŒ—åŒºä¸­ä¹‹å³¶1", "lat": 34.6925, "lng": 135.5035 },
      { "id": 26, "name": "å¤§é˜ªå¸‚ç«‹æ±æ´‹é™¶ç£ç¾è¡“é¤¨", "detail": "æ±æ´‹é™¶ç£ã‚³ãƒ¬ã‚¯ã‚·ãƒ§ãƒ³", "address": "åŒ—åŒºä¸­ä¹‹å³¶1", "lat": 34.6930, "lng": 135.5045 },
      { "id": 27, "name": "é©å¡¾", "detail": "ç·’æ–¹æ´ªåºµã®è˜­å­¦å¡¾", "address": "ä¸­å¤®åŒºåŒ—æµœ3", "lat": 34.6895, "lng": 135.5050 },
      { "id": 28, "name": "å¤§é˜ªå¤©æº€å®®", "detail": "å¤©ç¥ç¥­ã§æœ‰åãªç¥ç¤¾", "address": "åŒ—åŒºå¤©ç¥æ©‹2", "lat": 34.6941, "lng": 135.5112 },
      { "id": 29, "name": "é€ å¹£å±€ãƒ»é€ å¹£åšç‰©é¤¨", "detail": "æ¡œã®é€šã‚ŠæŠœã‘ã§æœ‰å", "address": "åŒ—åŒºå¤©æº€1", "lat": 34.6970, "lng": 135.5200 },
      { "id": 30, "name": "æ³‰å¸ƒè¦³ãƒ»æ—§é€ å¹£å¯®æ­£é¢ç„é–¢", "detail": "æ˜æ²»åˆæœŸã®æ´‹é¢¨å»ºç¯‰", "address": "åŒ—åŒºå¤©æº€æ©‹1", "lat": 34.6960, "lng": 135.5180 },
      { "id": 31, "name": "å›½ç«‹å›½éš›ç¾è¡“é¤¨ãƒ»å¤§é˜ªå¸‚ç«‹ç§‘å­¦é¤¨", "detail": "ç¾ä»£ç¾è¡“ã¨ç§‘å­¦ä½“é¨“", "address": "åŒ—åŒºä¸­ä¹‹å³¶4", "lat": 34.6918, "lng": 135.4920 },
      { "id": 32, "name": "é“é “å €", "detail": "ã‚°ãƒªã‚³çœ‹æ¿ã§æœ‰åãªç¹è¯è¡—", "address": "ä¸­å¤®åŒºé“é “å €1", "lat": 34.6687, "lng": 135.5016 },
      { "id": 33, "name": "æµªèŠ±äº”åº§ï¼ˆé“é “å €äº”åº§ï¼‰", "detail": "ã‹ã¤ã¦ã®èŠå±…å°å±‹è·¡", "address": "ä¸­å¤®åŒºé“é “å €1", "lat": 34.6682, "lng": 135.5025 },
      { "id": 34, "name": "æ³•å–„å¯ºæ¨ªä¸ãƒ»åƒæ—¥å‰", "detail": "æ°´æ›ä¸å‹•ã¨çŸ³ç•³ã®è·¯åœ°", "address": "ä¸­å¤®åŒºé›£æ³¢1", "lat": 34.6675, "lng": 135.5040 },
      { "id": 35, "name": "å›½ç«‹æ–‡æ¥½åŠ‡å ´", "detail": "äººå½¢æµ„ç‘ ç’ƒã®æ®¿å ‚", "address": "ä¸­å¤®åŒºæ—¥æœ¬æ©‹1", "lat": 34.6660, "lng": 135.5060 },
      { "id": 36, "name": "å¤§ä¸¸ç™¾è²¨åº—", "detail": "ãƒ´ã‚©ãƒ¼ãƒªã‚ºè¨­è¨ˆã®åå»ºç¯‰", "address": "ä¸­å¤®åŒºå¿ƒæ–æ©‹ç­‹1", "lat": 34.6720, "lng": 135.5010 },
      { "id": 37, "name": "åæ‘©ç¥ç¤¾ãƒ»é™¶å™¨ç¥ç¤¾", "detail": "æ‘‚æ´¥å›½ä¸€å®®", "address": "ä¸­å¤®åŒºä¹…å¤ªéƒç”º4", "lat": 34.6810, "lng": 135.4990 },
      { "id": 38, "name": "æ±æœ¬é¡˜å¯ºé›£æ³¢åˆ¥é™¢", "detail": "å—å¾¡å ‚ã¨å‘¼ã°ã‚Œã‚‹å¯º", "address": "ä¸­å¤®åŒºä¹…å¤ªéƒç”º4", "lat": 34.6800, "lng": 135.5010 },
      { "id": 39, "name": "è¥¿æœ¬é¡˜å¯ºæ´¥æ‘åˆ¥é™¢", "detail": "åŒ—å¾¡å ‚ã¨å‘¼ã°ã‚Œã‚‹å¯º", "address": "ä¸­å¤®åŒºæœ¬ç”º4", "lat": 34.6830, "lng": 135.5000 },
      { "id": 40, "name": "å¾¡éœŠç¥ç¤¾", "detail": "èˆ¹å ´ã®æ°ç¥", "address": "ä¸­å¤®åŒºæ·¡è·¯ç”º4", "lat": 34.6850, "lng": 135.5010 },
      { "id": 41, "name": "å°‘å½¦åç¥ç¤¾", "detail": "è–¬ã®ç¥æ§˜ãƒ»ç¥è¾²ã•ã‚“", "address": "ä¸­å¤®åŒºé“ä¿®ç”º2", "lat": 34.6880, "lng": 135.5050 },
      { "id": 42, "name": "ä½å‹éŠ…å¹æ‰€è·¡", "detail": "ä½å‹è²¡é–¥ç™ºç¥¥ã®åœ°", "address": "ä¸­å¤®åŒºæ·¡è·¯ç”º2", "lat": 34.6865, "lng": 135.5080 },
      { "id": 43, "name": "å¤©ä¿å±±", "detail": "æ—¥æœ¬ä¸€ä½ã„å±±", "address": "æ¸¯åŒºç¯‰æ¸¯3", "lat": 34.6535, "lng": 135.4320 },
      { "id": 44, "name": "æ²³æ‘ç‘è³¢ç´€åŠŸç¢‘", "detail": "å®‰æ²»å·é–‹å‰Šã®åŠŸåŠ´è€…", "address": "è¥¿åŒºå·å£1", "lat": 34.6750, "lng": 135.4780 },
      { "id": 45, "name": "è¿‘ä»£ç´¡ç¸¾å·¥æ¥­ç™ºç¥¥ã®åœ°", "detail": "å¤§é˜ªç´¡ç¸¾ä¼šç¤¾è·¡", "address": "å¤§æ­£åŒºä¸‰è»’å®¶æ±", "lat": 34.6580, "lng": 135.4850 },
      { "id": 46, "name": "æœ¨æ‘å…¼è‘­å ‚é‚¸è·¡", "detail": "æ±Ÿæˆ¸æ™‚ä»£ã®æ–‡äººã®é‚¸è·¡", "address": "ä¸­å¤®åŒºä»Šæ©‹3", "lat": 34.6890, "lng": 135.5060 },
      { "id": 47, "name": "é–“é•·æ¶¯å¤©æ–‡è¦³æ¸¬ã®åœ°", "detail": "æ±Ÿæˆ¸æ™‚ä»£ã®å¤©æ–‡å­¦è€…ã‚†ã‹ã‚Š", "address": "ä¸­å¤®åŒºé«˜éº—æ©‹2", "lat": 34.6885, "lng": 135.5070 },
      { "id": 48, "name": "é›‘å–‰å ´é­šå¸‚å ´è·¡", "detail": "ã‹ã¤ã¦ã®é­šå¸‚å ´è·¡", "address": "è¥¿åŒºé±æœ¬ç”º1", "lat": 34.6820, "lng": 135.4920 },
      { "id": 49, "name": "å·å£å±…ç•™åœ°è·¡", "detail": "æ˜æ²»ã®å¤–å›½äººå±…ç•™åœ°è·¡", "address": "è¥¿åŒºå·å£1", "lat": 34.6760, "lng": 135.4750 },
      { "id": 50, "name": "ä¸­å¤©æ¸¸é‚¸è·¡", "detail": "è˜­å­¦è€…ã®é‚¸è·¡", "address": "ä¸­å¤®åŒºåŒ—æµœ3", "lat": 34.6900, "lng": 135.5055 }
    ]
  }
}
